{"stations": [{"name": "Berkshire Fire Department",
   "coordinates": [44.9352689, -72.7275917]},
  {"name": "Mortimer Fire Station", "coordinates": [51.3765165, -1.0645236]},
  {"name": "Royal Berkshire Fire and Rescue Service",
   "coordinates": [51.4427136, -0.9323358]},
  {"name": "Caversham Road Fire Station",
   "coordinates": [51.4600638, -0.9764766]},
  {"name": "Unknown Station", "coordinates": [51.4152677, -0.9689941]},
  {"name": "Unknown Station", "coordinates": [51.4102051, -0.8302324]},
  {"name": "Faringdon Fire Station", "coordinates": [51.655903, -1.5869528]},
  {"name": "Unknown Station", "coordinates": [51.4104088, -0.8299295]},
  {"name": "Unknown Station", "coordinates": [51.4103494, -0.8298335]},
  {"name": "Bracknell Fire Station", "coordinates": [51.412102, -0.757203]},
  {"name": "Wallingford Fire Station", "coordinates": [51.601198, -1.1300898]},
  {"name": "Hungerford Tri Service Station",
   "coordinates": [51.4150773, -1.5174713]},
  {"name": "Newbury Fire Station", "coordinates": [51.4071589, -1.3184113]},
  {"name": "Ascot Fire Station", "coordinates": [51.4098422, -0.6747816]},
  {"name": "Wantage Fire Station", "coordinates": [51.5868342, -1.4238093]},
  {"name": "Royal Berkshire Fire and Rescue Service",
   "coordinates": [51.5058917, -1.5262085]},
  {"name": "Windsor Fire Station", "coordinates": [51.4777593, -0.6533932]},
  {"name": "Didcot Fire Station", "coordinates": [51.6067908, -1.2464129]},
  {"name": "Crowthorne Community Fire Station",
   "coordinates": [51.3667854, -0.7943471]},
  {"name": "Abingdon Fire Station", "coordinates": [51.6690892, -1.2903189]},
  {"name": "Slough Fire Station", "coordinates": [51.5116067, -0.611788]},
  {"name": "Langley Fire Station", "coordinates": [51.4999435, -0.5639961]},
  {"name": "Maidenhead Fire Station",
   "coordinates": [51.5254032, -0.7145141]}]}